lga_name,latitude,longitude,value,region_id
AbaNorth,5.100664101661993,7.359676856320799,172814.421875,566
AbaSouth,5.071549939046333,7.341670217011173,592510.25,566
Arochukwu,5.498948734236559,7.795737739890998,245577.859375,566
Bende,5.655167384357886,7.588042442721254,283951.5625,566
Ikwuano,5.383866061265536,7.568296224438409,204091.515625,566
IsialaNgwaNorth,5.370093052976562,7.406668066916658,225694.40625,566
IsialaNgwaSouth,5.267755058553979,7.390576791221866,200942.0625,566
Isuikwuato,5.7621906855983145,7.46299083301689,169446.71875,566
ObiNgwa,5.127164107551807,7.4557582692498325,286846.15625,566
Ohafia,5.655989276534374,7.778091261705277,361714.6875,566
OsisiomaNgwa,5.177592757705259,7.319375148861254,318685.40625,566
Ugwunagbo,5.006362570349915,7.339398039570169,128439.578125,566
UkwaEast,4.922993781572953,7.407889651885118,87148.8828125,566
UkwaWest,4.954096336342272,7.239244016606985,129432.1640625,566
UmuNneochi,5.94008992676282,7.410424700644241,242862.640625,566
UmuahiaNorth,5.55790596400875,7.4686977382162105,336623.75,566
UmuahiaSouth,5.46226907894943,7.440094532018086,200163.625,566
Demsa,9.36431073394731,12.181526305203846,266225.125,566
Fufore,9.163891666964062,12.636319148779707,295930.6875,566
Ganye,8.414844905575357,11.994324898415735,248349.6875,566
Girie,10.186855694504334,12.647559436708983,191035.25,566
Gombi,9.430376871895742,12.58996780404286,215034.484375,566
Guyuk,9.823743820829934,11.998361034757217,260461.65625,566
Hong,10.303428292347334,13.02889400561567,254387.578125,566
Jada,8.668691913794815,12.40994334312896,240615.640625,566
Lamurde,9.568349137663056,11.808634668128663,164246.203125,566
Madagali,10.83964322623897,13.561947712657275,197221.25,566
Maiha,9.904793667986329,13.224391693594182,131433.390625,566
Mayo-Belwa,8.867928250708731,12.059944592778443,226356.28125,566
Michika,10.605789282888722,13.457835137463636,226027.453125,566
MubiNorth,10.326877476045716,13.374302005872842,217686.578125,566
MubiSouth,10.187456291587855,13.398231110469403,180276.0625,566
Numan,9.452628536711751,11.934695333921736,134612.5,566
Shelleng,9.922859386129051,12.229240091192244,215899.078125,566
Song,9.811168355342767,12.731550815064418,288478.125,566
Teungo,8.004171123191062,11.84842326500069,76428.1953125,566
YolaNorth,9.25164296496222,12.52011931521846,295280.8125,566
YolaSouth,9.157359539993175,12.591557960711702,287272.9375,566
Abak,5.0060429913318485,7.760481318300291,213080.84375,566
EasternObolo,4.516620289129539,7.696413526007615,88413.0546875,566
Eket,4.628283004121044,7.942911302946257,275132.34375,566
EsitEket,4.633393007386721,8.067553722770073,99479.3203125,566
EssienUdim,5.09912196017395,7.639013604874191,301736.0,566
EtimEkpo,4.960897516313988,7.590152776034236,163628.734375,566
Etinan,4.801371083382632,7.834814100647891,264197.75,566
Ibeno,4.561946892338623,8.099085058452498,111045.953125,566
IbesikpoAsutan,4.911642749404504,7.940841868552637,211158.15625,566
IbionoIbom,5.200124554807906,7.881218643848732,292844.6875,566
Ika,5.001317865700021,7.525880966284587,115826.40625,566
Ikono,5.20723373651435,7.776528422439436,210638.78125,566
IkotAbasi,4.60171894132681,7.627910888313646,206489.921875,566
IkotEkpene,5.187184840965985,7.6837475841219405,217811.78125,566
Ini,5.397571819357337,7.73426063110633,157493.46875,566
Itu,5.14816828380076,7.978729965549163,203259.03125,566
Mbo,4.644559095729438,8.24531905055848,155272.640625,566
MkpatEnin,4.688017416463519,7.756539535012963,279446.40625,566
NsitAtai,4.817698129394245,8.025821014509294,114717.3125,566
NsitIbom,4.878512427979908,7.882357693086839,169004.828125,566
NsitUbium,4.742677495897922,7.9486597604504015,196310.84375,566
ObotAkara,5.241754902477029,7.589675345546186,229145.390625,566
Okobo,4.803901149349376,8.118441075022066,163378.453125,566
Onna,4.615898660158413,7.848627811274159,192464.96875,566
Oron,4.779217326054974,8.251511670714375,135167.109375,566
OrukAnam,4.795179809045121,7.655617866152299,268370.9375,566
UdungUko,4.74511840141169,8.241569402541563,78708.3203125,566
Ukanafun,4.879712507915552,7.5984207607566665,198340.375,566
Uruan,4.983138569513326,8.042386327640523,187063.9375,566
UrueOffong,4.710280690662681,8.159025955535173,112520.46875,566
Uyo,5.005338179588869,7.898315951279517,483344.5625,566
Aguata,5.974502545565674,7.046810505001831,531109.75,566
AnambraEast,6.298382412747294,6.857428924280078,225467.234375,566
AnambraWest,6.491020687722037,6.79959686698284,240914.015625,566
Anaocha,6.074138678310377,6.995697831342313,417707.5,566
AwkaNorth,6.329108198613094,7.04082486024506,163822.0,566
AwkaSouth,6.177724905610023,7.061541854771076,277654.625,566
Ayamelum,6.568485226910139,6.974703922781339,229761.171875,566
Dunukofia,6.22280787331185,6.936898644350972,139341.359375,566
Ekwusigo,5.989857421974729,6.8250195995432374,226749.6875,566
IdemiliNorth,6.106516078293782,6.88355804953242,613383.4375,566
IdemiliSouth,6.058517465277737,6.878187739344443,309239.125,566
Ihiala,5.827034417840384,6.855424656566931,431823.0625,566
Njikoka,6.173818622611274,6.966341454793327,225036.078125,566
NnewiNorth,5.989021798383942,6.884557513185669,225124.5,566
NnewiSouth,5.927793778573527,6.920001168143318,338136.3125,566
Ogbaru,5.85507824121346,6.722655652144228,324359.5625,566
OnitshaNorth,6.109953093333739,6.7845698024172965,180690.046875,566
OnitshaSouth,6.07758982222126,6.754620079050241,178926.5625,566
OrumbaNorth,6.094478785954492,7.146055085216023,256716.03125,566
OrumbaSouth,5.98014603018398,7.21990982931515,265838.84375,566
Oyi,6.19341872846406,6.872788586598414,240767.6875,566
Alkaleri,9.85705342828698,10.515508589338161,512714.5,566
Bauchi,10.21575104738315,9.947528334777497,772320.625,566
Bogoro,9.630577951977262,9.6073762138345,129938.9140625,566
Damban,11.586257137874936,10.826423834785544,234310.1875,566
Darazo,11.136177115285957,10.6248177733164,389605.59375,566
Dass,9.997332588432615,9.476997001109261,140865.84375,566
Gamawa,12.020609181513,10.621531472961694,443947.1875,566
Ganjuwa,10.732768197949017,10.023978220110477,435569.25,566
Giade,11.386409412410636,10.257121639728382,241077.671875,566
Itas/Gadau,11.848031103575934,10.053181213657117,357422.0625,566
Jama'are,11.674818141434852,9.932796796402322,183768.6875,566
Katagum,11.617018858708514,10.27546573480421,461079.8125,566
Kirfi,10.40625663550155,10.570066103783798,227384.9375,566
Misau,11.361746966765551,10.500836647034099,408040.625,566
Ningi,11.02344010756414,9.209011939154307,601810.3125,566
Shira,11.426285438277281,10.089735813111554,365410.375,566
Tafawa-Balewa,9.821848600011068,9.535852458789789,345553.1875,566
Toro,10.398340479651766,9.211743109783704,543088.125,566
Warji,11.136455871559994,9.748370967277548,179583.59375,566
Zaki,12.214700806476474,10.381652080978713,297219.6875,566
Brass,4.462490120341653,6.384553654676342,263961.46875,566
Ekeremor,4.948179566018342,5.6957607586943535,411133.03125,566
Kolokuma/Opokuma,5.082738011452064,6.266082672278858,127169.1875,566
Nembe,4.513136757549883,6.348207958721555,195128.484375,566
Ogbia,4.749275202800156,6.320690300732625,282004.75,566
Sagbama,5.113086626140431,6.183179077473316,287601.1875,566
SouthernIjaw,4.670707206807216,5.925625971118867,492752.1875,566
Yenagoa,5.080895376684411,6.3860690714699615,547104.8125,566
Ado,6.77363466784425,7.976551318209766,274687.0625,566
Agatu,7.854908094106781,7.906042675633786,173842.28125,566
Apa,7.611717793152443,7.888096455591099,145327.1875,566
Bukuru,7.373218565495604,9.143110345293593,309613.34375,566
Gboko,7.321220262570443,8.86408283576758,541883.5625,566
Guma,7.910011032502629,8.736190200484325,291153.25,566
GwerEast,7.358416734901408,8.420715599838795,255100.34375,566
GwerWest,7.632136840333809,8.216501455423844,182526.15625,566
Katsina-Ala,7.3216558571378245,9.57066215344053,340356.96875,566
Konshisha,7.029892831584533,8.660353641761347,339989.5,566
Kwande,6.822430214349449,9.500876405435754,372295.5,566
Logo,7.708487726488578,9.226249483450708,254360.96875,566
Makurdi,7.704173112894821,8.535860133065801,450017.5625,566
Obi,6.975792357079702,8.276942090726731,148196.515625,566
Ogbadibo,6.972750433997283,7.657062911863819,195512.453125,566
Ohimini,7.207485580101987,7.949875937308993,105612.4140625,566
Oju,6.8304187944680175,8.359139938383144,252123.40625,566
Okpokwu,7.011011022636237,7.850849003672494,261782.8125,566
Otukpo,7.2670024486697455,8.067608683877387,401297.3125,566
Tarka,7.583938907075155,8.850283343811089,117325.625,566
Ukum,7.652101265517664,9.583508124785578,324080.3125,566
Ushongo,7.04407322908337,9.08861503899474,289577.5625,566
VandeIkya,6.830883521919801,9.05591280736918,348564.96875,566
Abadam,13.36490724799114,13.186956961180895,122309.15625,566
Askira/Uba,10.640642694640976,13.025878012319007,227760.875,566
Bama,11.547138924808793,14.15553139907385,419982.1875,566
Bayo,10.420601362517765,11.790050880086326,126555.6640625,566
Biu,10.791823352413221,12.184978976310752,276026.75,566
Chibok,10.826811702104456,12.879876705496322,106286.9765625,566
Damboa,11.127215491125378,12.837096083237528,370754.25,566
Dikwa,11.914482432386906,14.12027932068728,165345.65625,566
Gubio,12.663539323334195,12.79492373324406,240104.84375,566
Guzamala,12.876536912196716,13.273152331443466,151794.28125,566
Gwoza,11.188931382832244,13.646132665681987,430495.8125,566
Hawul,10.45716224252529,12.372131042671153,196952.796875,566
Jere,11.9022623288018,13.250610775435911,342123.84375,566
Kaga,11.646818623282067,12.542285989690358,142694.53125,566
Kala/Balge,12.036881615922958,14.524549098093326,97673.5,566
Konduga,11.612111944599798,13.181750371875804,271503.5,566
Kukawa,12.981344156977414,13.595558894287805,183743.90625,566
KwayaKusar,10.440759685801083,11.98080028742535,89418.671875,566
LakeChad,13.120731876625117,13.80409859948752,217208.796875,566
Mafa,12.012651833009286,13.617908500046472,167190.40625,566
Magumeri,12.177726381476745,12.674764930882104,223050.8125,566
Maiduguri,11.85265885795669,13.199761712330217,829517.5,566
Marte,12.337687183541973,13.85950481211467,182000.15625,566
Mobbar,13.053185914137549,12.701214138090984,184704.84375,566
Monguno,12.484601742083747,13.558025380156286,159388.140625,566
Ngala,12.199345379605493,14.27354818455837,379785.875,566
Nganzai,12.486934937833455,13.177487577523644,156954.734375,566
Shani,10.174165956833805,12.06551408942216,161544.546875,566
Abi,5.89318182845031,8.008459590678347,216363.078125,566
Akamkpa,5.392434486192924,8.515374338996375,222090.78125,566
Akpabuyo,4.894179243827515,8.460091547997612,400658.3125,566
Bakassi,4.763313838660116,8.525318492177304,40086.55859375,566
Bekwarra,6.680810705505796,8.902288899078249,154743.84375,566
Biase,5.530703832853561,8.041979604455584,248294.84375,566
Boki,6.2623013494858215,8.990597986369453,275042.375,566
Calabar,4.995646021403927,8.315448481949701,276080.90625,566
CalabarSouth,4.853273312959685,8.276486907078883,274064.5,566
Etung,5.83555030295595,8.777548201866113,115723.46875,566
Ikom,6.063375543749667,8.589147763613138,241681.453125,566
Obanliku,6.510753415453131,9.288498415150693,168133.5,566
Obubra,5.975007011991229,8.342055814455145,257563.765625,566
Obudu,6.559178126991641,9.038774025189996,229093.25,566
Odukpani,5.156718981478784,8.121063435273161,289004.90625,566
Ogoja,6.495216988416891,8.706223828687284,252907.375,566
Yakurr,5.790728749967003,8.152398142693666,288294.6875,566
Yala,6.654977038299714,8.583995758293312,313063.5,566
AniochaNorth,6.3623513909884055,6.479247477523444,157963.53125,566
AniochaSouth,6.128257234457786,6.483339456587028,219100.4375,566
Bomadi,5.204347599986214,5.852911997570224,125627.28125,566
Burutu,5.2309710060660946,5.5952327138251645,307413.5,566
EthiopeEast,5.687992553502851,5.984047386115781,306032.125,566
EthiopeWest,5.9199353349576995,5.729381661375963,315800.5,566
IkaNorth-East,6.22874325427403,6.289609658891249,278631.5625,566
IkaSouth,6.175573666752746,6.180437079658411,258448.015625,566
IsokoNorth,5.524949114438916,6.234259440958298,219465.140625,566
IsokoSouth,5.382165348176676,6.214195878387733,360408.09375,566
NdokwaEast,5.670355985684343,6.507823787759965,173689.234375,566
NdokwaWest,5.803049051790116,6.335872041222539,229443.046875,566
Okpe,5.681434698609592,5.781157683952705,200437.171875,566
OshimiliNorth,6.322872995200707,6.644396221135738,184953.5625,566
OshimiliSouth,6.09210481269935,6.681755969964405,242635.0625,566
Patani,5.1807333872955805,6.1004172539723065,104465.2421875,566
Sapele,5.82586348321107,5.6425427654159215,262691.875,566
Udu,5.472154150788138,5.822040073554965,217717.96875,566
UghelliNorth,5.511270452197499,6.048166854523997,497886.3125,566
UghelliSouth,5.340375484648256,5.89349172060214,334741.65625,566
Ukwuani,5.844767384210189,6.237483277171622,182688.875,566
Uvwie,5.5716150072675825,5.7758779716485105,289828.71875,566
WarriNorth,5.88324376165048,5.258618297674469,204641.75,566
WarriSouth,5.613349615378782,5.610640421483003,455618.59375,566
WarriSouth-West,5.574298374626686,5.4112997326923535,168675.671875,566
Abakaliki,6.245242102693305,8.20109869245317,225452.0,566
AfikpoNorth,5.876565388406252,7.908019417389347,230254.515625,566
AfikpoSouth,5.83155548048439,7.802696043882596,228896.03125,566
Ebonyi,6.493428742969648,8.112125260976622,188691.34375,566
EzzaNorth,6.248496571366622,7.965590994546943,208965.65625,566
EzzaSouth,6.111926202608547,8.001919355612648,199358.359375,566
Ikwo,6.078603029021978,8.17245033428019,311292.3125,566
Ishielu,6.411926434095623,7.811879790649315,226736.40625,566
Ivo,5.89472131239896,7.610998343647141,178104.59375,566
Izzi,6.504972441886239,8.264363853368915,345336.8125,566
Ohaozara,5.98849157492618,7.779000049028736,220298.34375,566
Ohaukwu,6.515493929812767,8.008651159137266,287413.21875,566
Onicha,6.10715314161063,7.83351067952284,340883.84375,566
Akoko-Edo,7.34245557084325,6.110750201712911,381064.9375,566
Egor,6.349187086587479,5.555974164405693,485522.53125,566
EsanCentral,6.7133625159566215,6.228201267996349,150147.28125,566
EsanNorth-East,6.757016367318023,6.373340980528529,174682.1875,566
EsanSouth-East,6.582750446871025,6.459491256863538,240641.703125,566
EsanWest,6.654476942847479,6.111368101292971,186533.109375,566
EtsakoCentral,6.956558717243153,6.503809661471991,136050.765625,566
EtsakoEast,7.185751923676598,6.489832582373049,221199.40625,566
EtsakoWest,6.9756117444224595,6.291681617395754,290208.0625,566
Igueben,6.501103787340009,6.219256625042637,101488.578125,566
Ikpoba-Okha,6.164529431221813,5.622848130410773,555178.8125,566
Oredo,6.213566697954835,5.523586104780839,515788.84375,566
Orhionmwon,6.051691750307017,5.975556698371673,272304.375,566
OviaNorth-East,6.480097285099897,5.506270638699342,230399.671875,566
OviaSouth-West,6.476876349885531,5.236953881136056,203463.53125,566
OwanEast,7.027560914622299,6.032394921843821,225748.0,566
OwanWest,6.902136727479719,5.872054783457969,141259.859375,566
Uhunmwonde,6.492200235247194,5.884530285980776,179613.09375,566
Ado-Ekiti,7.5966831266599,5.2787256931737785,468083.5,566
Efon,7.6611471342492266,4.955168149151316,132361.84375,566
EkitiEast,7.736288532796014,5.682652275163348,201374.515625,566
EkitiSouth-West,7.509169399883827,5.076581364643697,244845.0625,566
EkitiWest,7.657206857555205,5.011166285369183,262930.6875,566
Emure/Ise/Orun,7.4263559836052515,5.506007142281552,141886.9375,566
Gboyin,7.598713394791494,5.499054852456123,221127.1875,566
Ido-Osi,7.84075023742627,5.168249999708661,241254.46875,566
Ijero,7.8167287396035,5.039459424269697,333686.0,566
Ikere,7.483621538688125,5.219061541284241,224883.703125,566
Ikole,7.862460222904879,5.512266929751777,257921.90625,566
Ilejemeje,7.930528726173066,5.217128473019213,65068.97265625,566
Irepodun/Ifelodun,7.696974006414537,5.22428346158704,205319.59375,566
Ise/Orun,7.426310958903527,5.395299481342156,171557.28125,566
Moba,7.971113135681159,5.114190004704964,214419.53125,566
Oye,7.85842626689403,5.339340578420708,209711.65625,566
Aninri,6.039287042661523,7.589743224914817,198812.71875,566
Awgu,6.1452941053048935,7.437027267428938,287677.90625,566
EnuguEast,6.5489078997865295,7.539131286237071,404874.53125,566
EnuguNorth,6.447262288131036,7.537164028219612,354910.15625,566
EnuguSouth,6.396090100114728,7.506327239185046,292265.875,566
Ezeagu,6.398139333265339,7.202803615420334,253855.484375,566
Igbo-Etiti,6.6750411785248,7.406362931711157,301917.09375,566
Igbo-ezeNorth,7.009722958845205,7.438526840781272,376996.4375,566
Igbo-ezeSouth,6.955918635096235,7.352141559379415,215157.3125,566
Isi-Uzo,6.7306521878849805,7.692795056720408,220045.28125,566
NkanuEast,6.299231071608898,7.652112748065475,228813.78125,566
NkanuWest,6.311006988239229,7.508970982904752,218542.265625,566
Nsukka,6.83929389523449,7.353301704441714,457945.0,566
Oji-River,6.152118107509268,7.269547528740329,187883.0,566
Udenu,6.861923224824101,7.549473185558965,262050.890625,566
Udi,6.475570968928135,7.309812652950666,352564.5625,566
Uzo-Uwani,6.734904198207308,7.120809294320289,186728.828125,566
Abaji,8.806721559396552,6.822892601079906,201731.03125,566
Abuja,8.955335113869898,7.349371595012964,2674201.5,566
Bwari,9.207946513417522,7.429883835571102,806099.375,566
Gwagwalada,9.053895409080642,6.985397769864779,548283.5625,566
Kuje,8.639030586653403,7.230787293257561,334802.3125,566
Kwali,8.719534368135324,6.951772429624185,299805.75,566
Akko,10.148288061193494,11.069285815999113,549451.875,566
Balanga,9.844508825291685,11.720052387618729,330118.0625,566
Billiri,9.88110185802711,11.180390068853459,315816.0625,566
Dukku,10.80607324833684,10.869994278168813,324358.75,566
Funakaye,10.80640553467922,11.409523302812545,370358.4375,566
Gombe,10.31255169507142,11.240038205314507,364847.1875,566
Kaltungo,9.876510679453094,11.503590342114462,247950.46875,566
Kwami,10.532446998607691,11.240141446993404,316301.3125,566
Nafada,11.100148519221221,11.214626753822184,219607.0,566
Shomgom,9.687564789983982,11.245687619843347,235444.0625,566
Yamaltu/Deba,10.301812894100834,11.539937410589232,417833.53125,566
Aboh-Mbaise,5.425373439736012,7.251867081939187,299788.125,566
Ahiazu-Mbaise,5.546568949346326,7.271384840014424,264922.78125,566
Ehime-Mbano,5.664973268571232,7.303163131755774,200361.40625,566
EzinihitteMbaise,5.464485055547443,7.326721420307112,252361.796875,566
IdeatoNorth,5.8668238082386175,7.159472348775791,245241.1875,566
IdeatoSouth,5.790635573384723,7.155582623578628,233352.65625,566
Ihitte/Uboma,5.62176896947448,7.365482719863187,171965.25,566
Ikeduru,5.550287151146486,7.1641117974033826,228844.109375,566
IsialaMbano,5.667671866455856,7.203393194453059,306457.84375,566
Isu,5.67785458558071,7.0704380306478125,236777.40625,566
Mbatoli,5.589557188242604,7.039195195273385,374788.0,566
Ngor-Okpala,5.289296339611524,7.150185638227925,243076.78125,566
Njaba,5.700965624264261,7.026958375119431,216497.359375,566
Nkwerre,5.735000402837217,7.120791768340196,119192.453125,566
Nwangele,5.698802940468991,7.136626366132945,194296.4375,566
Obowo,5.549266958736072,7.360225005002114,189463.796875,566
Oguta,5.658096735551191,6.812331982530614,218326.53125,566
Ohaji/Egbema,5.40242139800569,6.824545540928575,280086.34375,566
Okigwe,5.810873242918105,7.325516932015205,201671.75,566
Orlu,5.797305276149969,7.058484699637681,227434.328125,566
Orsu,5.861462958347518,6.997709798418255,193655.46875,566
OruEast,5.705784739548161,6.960139645619847,176417.59375,566
OruWest,5.7423959176090715,6.910908264764339,169293.5,566
OwerriMunicipal,5.478276321405431,7.034859058403468,185608.34375,566
OwerriNorth,5.441525226813235,7.097922585146782,272151.0,566
OwerriWest,5.43226726573991,6.980462091972776,165977.421875,566
Unuimo,5.773641669498243,7.241153074877473,151326.296875,566
Auyo,12.315534626331846,9.99706356879408,197719.65625,566
Babura,12.586888517303016,8.837639664265474,314414.9375,566
Biriniwa,12.782769371501638,10.033446213682542,209756.75,566
BirninKudu,11.45115596838251,9.49085075794817,463303.1875,566
Buji,11.562941739252066,9.732333970390055,140233.390625,566
Dutse,11.774822682870111,9.298252560796916,372917.375,566
Gagarawa,12.465125971493798,9.527832679963282,121455.2578125,566
Garki,12.371902190777776,9.081730230363927,221599.59375,566
Gumel,12.59462245005787,9.362037109338711,156323.25,566
Guri,12.616156353509036,10.453660534961799,167565.46875,566
Gwaram,11.178413723665955,9.991751671540529,402758.875,566
Gwiwa,12.731359782168164,8.252312955610662,192260.46875,566
Hadejia,12.42704282769603,10.031140792959208,144004.34375,566
Jahun,12.034019167711273,9.537663004766081,338115.25,566
KafinHausa,12.132393863829876,10.010135269404032,392022.3125,566
Kaugama,12.469476063235694,9.745220776179185,192641.921875,566
Kazaure,12.624080113756527,8.521485066839096,234318.59375,566
KiriKasama,12.53883912790303,10.223633010773021,283748.59375,566
Kiyawa,11.81168551817967,9.575586741810465,255007.328125,566
Maigatari,12.691369812985105,9.533628839355318,259400.015625,566
MalamMaduri,12.526337177720965,9.982128228362578,252801.84375,566
Miga,12.191234388239327,9.675587148902608,187881.90625,566
Ringim,12.130282064594379,9.096548654357202,283500.3125,566
Roni,12.561688714842777,8.316361210448626,111790.953125,566
SuleTankarkar,12.626265344294163,9.170068053928777,199963.109375,566
Taura,12.233114168570134,9.34284487402632,195430.71875,566
Yankwashi,12.73015724009368,8.494883160189584,143213.046875,566
BirninGwari,10.857362087854844,6.654652806002663,391158.28125,566
Chikun,10.366936319120365,7.2408497569112935,572870.875,566
Giwa,11.104428436573883,7.392015882923904,439144.75,566
Igabi,10.716896315241405,7.547202586596423,664004.75,566
Ikara,11.25250777296371,8.196041366576624,297101.8125,566
Jaba,9.448978192814888,8.034735234201813,231724.828125,566
Jema'a,9.335222127571619,8.248301243268044,422545.625,566
Kachia,9.818565001470951,7.648711545885489,382482.625,566
KadunaNorth,10.56096277814849,7.455293371770904,556526.875,566
KadunaSouth,10.473939161949195,7.422688742505354,577390.3125,566
Kagarko,9.437796388793137,7.616775480643863,359481.8125,566
Kajuru,10.252326665457769,7.885114539837534,165700.3125,566
Kaura,9.593200560900602,8.457057775980353,256994.96875,566
Kauru,10.263196918388141,8.286864108515298,332896.84375,566
Kubau,10.84705289703041,8.343248145836577,425253.71875,566
Kudan,11.251962832778002,7.782893102664646,207874.0625,566
Lere,10.326494971990257,8.555360157733958,513321.34375,566
Makarfi,11.300583884276337,7.971363488373453,221871.640625,566
SabonGari,11.159463004853597,7.688178768415514,443698.4375,566
Sanga,9.213574509703397,8.481659987326822,229068.375,566
Soba,10.939959400773985,7.98577680885449,440500.625,566
ZangonKataf,9.822506107390472,8.226024673513944,486323.625,566
Zaria,11.023141906229636,7.714215962473139,608657.875,566
Ajingi,11.947995583555423,9.029665974017526,270573.125,566
Albasu,11.622569019995062,9.09156653419798,298564.78125,566
Bagwai,12.080155367636724,8.118572863698809,248698.25,566
Bebeji,11.491767756690031,8.284157062575169,302712.96875,566
Bichi,12.242857126975014,8.245765086283402,435707.53125,566
Bunkure,11.663121540069517,8.568010857312222,272298.78125,566
Dala,11.998184104180849,8.462271384174883,683892.875,566
Dambatta,12.399529800096268,8.619801447724038,335384.40625,566
DawakinKudu,11.796525114823726,8.645793900085788,348880.875,566
DawakinTofa,12.12122077409384,8.368464625579845,390646.5625,566
Doguwa,10.834107229319262,8.646020024893147,236906.71875,566
Fagge,11.985294144851602,8.553849271200463,342070.5,566
Gabasawa,12.153763838924496,8.835400563763459,331204.0625,566
Garko,11.550492609502879,8.809112294686384,255755.28125,566
GarumMallam,11.646894377321756,8.373131488068065,186210.71875,566
Gaya,11.772910314985316,9.016078955478914,321536.5,566
Gezawa,12.033655827147147,8.703917205108894,439999.3125,566
Gwale,11.968235734933717,8.468754976729272,606309.0,566
Gwarzo,11.883579599995116,7.941865885873384,286220.9375,566
Kabo,11.866741851555252,8.172433598190775,239714.046875,566
Kano,11.9404773945987,8.477504489733365,557860.0,566
Karaye,11.750499731710148,7.992853840721786,225219.28125,566
Kibiya,11.488022517470126,8.644771717330665,218226.296875,566
Kiru,11.588634596890383,8.126551782310905,417981.625,566
Kumbotso,11.905070875558048,8.497138649308333,461079.84375,566
Kunchi,12.407733505082925,8.253328146918948,176259.390625,566
Kura,11.770642541683982,8.46996595409913,227947.296875,566
Madobi,11.809951297496962,8.354951899961076,218412.03125,566
Makoda,12.408583547845366,8.461476380765207,337117.5,566
Minjibir,12.173670165396377,8.597596256072569,345131.3125,566
Nasarawa,12.006076911945886,8.508256622581117,814858.25,566
Rano,11.466427777544354,8.498697417751492,229272.28125,566
RiminGado,11.9255842948069,8.258513802559966,160998.09375,566
Rogo,11.505139674430879,7.847924757856484,354059.09375,566
Shanono,12.067182873618833,7.940960879215272,221124.390625,566
Sumaila,11.311513020727851,8.870860745517255,394059.3125,566
Takai,11.467150729925201,9.143522562167322,313112.3125,566
Tarauni,11.955143333046392,8.528346669350432,355237.09375,566
Tofa,11.995677505372244,8.310708070337204,154759.125,566
Tsanyawa,12.250222299623793,7.993370134493314,244858.984375,566
TudunWada,11.251109109008283,8.556948499549726,356232.5,566
Ungogo,12.046844670837102,8.504545555566676,620107.125,566
Warawa,11.898780440260621,8.728529466591956,214175.09375,566
Wudil,11.741526666410813,8.838290664835844,297486.59375,566
Bakori,11.607138183251223,7.434818735688104,228193.65625,566
Batagarawa,12.885153952358541,7.566055231973507,286014.375,566
Batsari,12.77221750546584,7.244703437790736,312028.8125,566
Baure,12.787637696238356,8.75596591323337,304019.03125,566
Bindawa,12.709044800399516,7.852978278678936,224436.9375,566
Charanchi,12.594835807648138,7.673970747458639,206462.96875,566
Dandume,11.387529970441456,7.201099475274128,218752.59375,566
Danja,11.386005557365433,7.564731626506389,186444.921875,566
Danmusa,12.207077670197126,7.334261143464981,171015.40625,566
Daura,12.985183405976477,8.242012515159807,328589.4375,566
Dutsi,12.902744554596891,8.136238171104884,181238.34375,566
Dutsinma,12.429410706983138,7.5191117216446415,254075.46875,566
Faskari,11.656237437038323,7.099683312799177,292468.125,566
Funtua,11.442765004531298,7.306005088144287,336565.40625,566
Ingawa,12.607183099126555,8.068464788199275,256312.6875,566
Jibia,12.985524567591227,7.296374796673322,247820.28125,566
Kafur,11.636611526467151,7.700557108198852,315961.125,566
Kaita,13.162352039479432,7.723147039832873,273447.125,566
Kankara,11.954016211211743,7.371077168551063,366642.875,566
Kankia,12.432101992745766,7.790779127900277,229597.203125,566
Katsina,13.001004788572056,7.6118479313006295,475673.96875,566
Kurfi,12.684271757518818,7.488913686136553,177121.34375,566
Kusada,12.441419895151132,7.978269012968572,148602.234375,566
Mai'Adua,13.14457839576713,8.20802138518047,311539.90625,566
Malumfashi,11.839058750588583,7.657541432050528,273343.46875,566
Mani,12.884677912584099,7.922169187090391,266475.0625,566
Mashi,13.124231507988883,7.983345926569052,255849.484375,566
Matazu,12.245269298067203,7.627630924843143,168874.3125,566
Musawa,12.072541010552282,7.695242842013483,256314.046875,566
Rimi,12.821531230792548,7.694703066266704,230366.90625,566
Sabuwa,11.28425737164157,7.093404161720735,210185.46875,566
Safana,12.469999679762184,7.260105519419282,277879.5,566
Sandamu,12.891903070050681,8.348546636570243,209301.171875,566
Zango,12.939252982788895,8.53099008770527,231404.53125,566
Aleiro,12.248906730343268,4.478715900292934,106344.34375,566
ArewaDandi,12.694070938845607,4.055065261214218,290015.5,566
Argungu,12.634311558364592,4.441288029448226,304908.8125,566
Augie,12.875340877376779,4.640774070150172,181035.390625,566
Bagudo,11.31687616266244,3.9641132575968987,362884.0,566
BirninKebbi,12.41311439143911,4.304771010604863,409518.75,566
Bunza,12.103432007723116,3.969112367926134,187964.703125,566
Dandi,11.7947092437931,3.8375107464306346,224366.59375,566
DankoWasagu,11.417078372001644,5.651258251945103,404762.1875,566
Fakai,11.492869897886292,4.9309839048277535,182600.78125,566
Gwandu,12.466462818617583,4.677739799979801,232007.34375,566
Jega,12.033328101355497,4.4855381499974465,298066.1875,566
Kalgo,12.263134107468076,4.082620909465204,130186.15625,566
Koko/Besse,11.435560546586366,4.439581524585327,236251.34375,566
Maiyama,11.905683553691999,4.353056701666591,265880.1875,566
Ngaski,10.543814175248446,4.774323736127562,192159.5625,566
Sakaba,11.148526764616753,5.544404790375597,139822.390625,566
Shanga,11.208408713364738,4.726736697901539,193048.75,566
Suru,11.770698421872307,4.136418716166359,224381.125,566
Yauri,11.001435370055551,4.606601142100461,148470.75,566
Zuru,11.480932697829427,5.307636805500564,252013.75,566
Adavi,7.641493044396765,6.433781777985535,339545.125,566
Ajaokuta,7.494088692735548,6.589793682413155,186419.65625,566
Ankpa,7.433757978613516,7.651204116640764,398561.75,566
Bassa,7.770990681837898,7.024394687985898,209980.234375,566
Dekina,7.548194261786835,7.176627643016985,390626.75,566
Ibaji,6.799270027676827,6.763015037742162,192438.125,566
Idah,7.060769385759423,6.713117812317151,109646.8125,566
Igalamela-Odolu,7.057291093179552,7.018797664329644,227442.875,566
Ijumu,7.848763088412056,5.956110347588945,178376.484375,566
Kabba/Bunu,8.062645520443567,6.203345649542311,216909.25,566
Kogi,8.123380574603837,6.859034343763864,172061.9375,566
Lokoja,8.172972180847482,6.460380823986771,296219.65625,566
Mopa-Muro,8.103299482894306,5.878429059456531,66889.1640625,566
Ofu,7.302823236100138,7.038068472142617,287523.125,566
Ogori/Magongo,7.461508426405719,6.1533329030963895,61191.2265625,566
Okehi,7.681897764917362,6.285424969791619,332730.9375,566
Okene,7.449863288058339,6.322068337379311,467821.40625,566
Olamaboro,7.183626259345994,7.558001139155776,241638.703125,566
Omala,7.799522427154557,7.5409912822795135,161509.34375,566
YagbaEast,8.164182584516086,5.761436640190246,222748.921875,566
YagbaWest,8.296466179162891,5.527486841449634,209894.125,566
Asa,8.41740815438986,4.446130833419239,194832.90625,566
Baruten,9.294777586843521,3.39195631302396,308462.4375,566
Edu,8.8765122402801,5.2053095665394125,298983.3125,566
Ekiti,8.075966733343218,5.346973812758005,81924.9921875,566
Ifelodun,8.530604548376516,5.066764106034193,307767.34375,566
IlorinEast,8.582486782602228,4.784206464531116,325393.0,566
IlorinSouth,8.43497164811337,4.692654051658378,291455.375,566
IlorinWest,8.471634993950351,4.554971026217639,527185.3125,566
Irepodun,8.156067916506718,4.935718877634936,219247.78125,566
Isin,8.253422495801821,5.05403989503051,89000.109375,566
Kaiama,9.459570355463946,4.179185285635724,184259.0,566
Moro,8.828433121101616,4.576789772593196,165749.4375,566
Offa,8.137493184768717,4.69984404055078,134510.40625,566
Oke-Ero,8.158285606551885,5.264455863163715,88550.5078125,566
Oyun,8.145525311635954,4.658503204382803,141280.53125,566
Pategi,8.61592658490465,5.811973836426419,164215.21875,566
Agege,6.640960002564712,3.305259715805349,591926.4375,566
Ajeromi/Ifelodun,6.466287255711238,3.324291153611132,945112.5625,566
Alimosho,6.598129649119963,3.2458432829933934,2093589.5,566
AmuwoOdofin,6.45566756379021,3.264018900991891,532460.875,566
Apapa,6.438436852046609,3.3622968887510676,428726.0,566
Badagry,6.449123845146647,2.912083849746372,369075.5625,566
Epe,6.562110486422332,3.949434296388311,279981.625,566
Eti-Osa,6.456525780598212,3.538103116233464,423260.875,566
Ibeju-Lekki,6.469663086624726,3.865645253525987,176532.75,566
Ifako/Ijaye,6.677244966608233,3.304128206938362,681636.1875,566
Ikeja,6.618967037257111,3.3353225948142433,564212.0625,566
Ikorodu,6.626146596040782,3.5584549940168793,814920.1875,566
Kosofe,6.606860315490161,3.400928240537321,1036686.75,566
LagosIsland,6.518672158095571,3.482287933473012,359489.75,566
Mainland,6.504206873265757,3.374094791426575,461996.59375,566
Mushin,6.551402504452828,3.3421230503391626,853247.5625,566
Ojo,6.4653783142631385,3.1459443077048688,928623.8125,566
Oshodi/Isolo,6.558387628514903,3.3041669032424648,1010018.25,566
Shomolu,6.553637217990864,3.378729706954008,694877.5625,566
Surulere,6.507049267765253,3.3352463580017653,797787.4375,566
Akwanga,8.993829580223641,8.327123638526407,166854.15625,566
Awe,8.249928543232944,9.218580101860482,167915.75,566
Doma,8.16322705489594,8.281185903774068,207568.640625,566
Karu,9.027678813137825,7.765844379571205,322906.5625,566
Keana,8.16743410293168,8.768252599879716,122340.0625,566
Keffi,8.82961181219004,7.823630185708175,137378.9375,566
Kokona,8.831928433085452,8.050062935476925,160986.46875,566
Lafia,8.640020517121062,8.699602106441969,493354.75,566
Nasarawa,8.329018641664067,7.7765037161498745,278698.375,566
NasarawaEggon,8.740716429568069,8.42091398671233,219028.625,566
Obi,8.347393331135928,8.72773747970881,219029.375,566
Toto,8.238533574366548,7.202353356427416,178570.9375,566
Wamba,8.97680940110009,8.676118824957408,108140.828125,566
Agaie,8.930626915325936,6.408161981106976,209236.71875,566
Agwara,10.774785997065424,4.539719785618494,95799.109375,566
Bida,9.082549045228825,5.984747172343029,279983.9375,566
Borgu,10.378404148468379,4.16260547910564,273518.71875,566
Bosso,9.59814107798362,6.387081743429711,255410.40625,566
Chanchaga,9.605542654009119,6.514112439120282,298293.6875,566
Edati,9.027489053025043,5.618203481143862,248030.5625,566
Gbako,9.28448371062285,5.986124748968473,207396.984375,566
Gurara,9.322017747490884,7.023208726855383,148095.34375,566
Katcha,9.116928624249198,6.242283943997303,188914.5,566
Kontagora,10.424796081018977,5.47509273655263,239784.4375,566
Lapai,8.727102854217526,6.635323721634923,186914.3125,566
Lavun,9.273434234105524,5.683432839679328,341517.59375,566
Magama,10.370818905250704,4.980081746401019,287510.78125,566
Mariga,10.670556425265028,5.819196015996794,314086.25,566
Mashegu,9.862659147942782,5.233456146466749,340833.0625,566
Mokwa,9.243746703562088,5.146344289169269,386214.84375,566
Muya,9.809894684156681,7.017317566300237,163830.125,566
Paikoro,9.46814320150407,6.8557264634020845,249676.6875,566
Rafi,10.16519260774028,6.24829980257733,294536.875,566
Rijau,11.07075041121722,5.15870931059522,280186.59375,566
Shiroro,10.110979554605187,6.672088403319725,371733.75,566
Suleja,9.18833464556699,7.151105701536949,333147.25,566
Tafa,9.242744857726414,7.230861128161074,135700.78125,566
Wushishi,9.676177385796988,5.933281494109564,129532.2734375,566
AbeokutaNorth,7.234649711798127,3.170231929248866,315828.59375,566
AbeokutaSouth,7.169734802573826,3.3540481781991742,378779.90625,566
AdoOdo/Ota,6.637388351911661,3.0681591979014375,837908.25,566
Ewekoro,6.9582582334467995,3.188766482141514,89453.3359375,566
Ifo,6.783590996837988,3.23789831638848,856753.25,566
Ijebu-Ode,6.766053494319213,3.9562643256905274,242570.5625,566
IjebuEast,6.8240491759556265,4.257173802885133,174432.609375,566
IjebuNorth,7.003858859096195,3.978045187047756,437779.78125,566
IjebuNorth-East,6.889035581585859,4.011917534698923,103823.5,566
Ikenne,6.910119223374447,3.673824213049831,183115.78125,566
Imeko-Afon,7.669593561870685,2.866054727263738,125241.15625,566
Ipokia,6.623776968143858,2.8002102231797714,227420.125,566
Obafemi-Owode,7.003663507930414,3.473917264000483,367806.34375,566
Odeda,7.295808283397278,3.5138686058210538,172474.75,566
Odogbolu,6.786010539499627,3.8053319321377903,197647.125,566
OgunWaterside,6.486373836503303,4.402702182622913,117050.953125,566
Remo-North,6.995846781352139,3.715972701157383,93638.125,566
Shagamu,6.788342316985666,3.5646899168039283,397387.25,566
YewaNorth,7.1536433546005345,2.9042453758158304,287873.625,566
YewaSouth,6.808264381351738,2.935582608156462,259400.46875,566
AkokoNorth-East,7.553291417013494,5.836915112733852,267681.375,566
AkokoNorth-West,7.649410466023498,5.778875980113099,321160.25,566
AkokoSouth-East,7.436156155259131,5.8868995913997955,123673.15625,566
AkokoSouth-West,7.403082866250644,5.673806423872454,343033.78125,566
AkureNorth,7.273766179330214,5.303063419296758,204551.34375,566
AkureSouth,7.211899347082114,5.190254965318334,533771.3125,566
Ese-Odo,6.2128052938035605,4.9712248620826855,232402.90625,566
Idanre,6.978595575297769,5.199661435288508,196812.65625,566
Ifedore,7.365324447415349,5.090038283345976,260751.96875,566
Ilaje,6.225821173199872,4.771496311644444,429297.0,566
Ile-Oluji/Okeigbo,7.28162996130795,4.957896120630126,255545.546875,566
Irele,6.5241742975570975,4.984236163925618,214206.90625,566
Odigbo,6.75496065625653,4.721839768843289,352400.3125,566
Okitipupa,6.552577864792736,4.714997166881595,352482.5,566
OndoEast,7.077116544064165,4.950983373238298,113728.71875,566
OndoWest,6.9999785369856005,4.725602321769923,429554.09375,566
Ose,7.059892379799447,5.72278302906112,218954.46875,566
Owo,7.152830058920771,5.547388008422857,333175.59375,566
Aiyedade,7.295573586773572,4.3099137734996615,234133.890625,566
AtakumosaEast,7.302509782716183,4.803752791899055,124614.78125,566
AtakumosaWest,7.49215697344655,4.675133558336163,112626.328125,566
Ayedire,7.543891974809853,4.240168883456532,115053.296875,566
Boluwaduro,7.918806541451467,4.8129378596780015,105997.2109375,566
Boripe,7.83931809647982,4.68393791280218,210607.28125,566
EdeNorth,7.709341214887244,4.507077437204045,126198.7109375,566
EdeSouth,7.633222587855526,4.4686867006815385,114811.046875,566
Egbedore,7.763691630642577,4.431953757476038,135968.109375,566
Ejigbo,7.824401891857917,4.267440546844126,198315.125,566
IfeCentral,7.456244754831424,4.605427237329979,241015.015625,566
IfeEast,7.362938889316875,4.611612003486773,268847.125,566
IfeNorth,7.2858002077923825,4.469941469394772,249970.265625,566
IfeSouth,7.199631968476744,4.596088355675021,219616.46875,566
Ifedayo,7.962705140750474,5.001903784902612,58530.78125,566
Ifelodun,7.904244184443739,4.64759127920784,147258.171875,566
Ila,7.977284832895707,4.9006993737246525,96234.328125,566
IleshaEast,7.586174723418879,4.766480049952747,160278.890625,566
IleshaWest,7.629635735818334,4.715083416617763,161943.8125,566
Irepodun,7.856464039263896,4.519260064229126,182160.21875,566
Irewole,7.384275762365039,4.218562455655632,219687.703125,566
Isokan,7.270889543242756,4.187767095616309,153085.640625,566
Iwo,7.635155544603944,4.131200764638542,294316.96875,566
Obokun,7.762047300414136,4.771695230586232,183185.15625,566
Odo-Otin,7.991808999834043,4.682214479094041,202271.53125,566
OlaOluwa,7.729996647175128,4.2084917714135015,118424.15625,566
Olorunda,7.842131884377631,4.578382284786361,198941.53125,566
Oriade,7.522838398366904,4.884585967363161,235661.4375,566
Orolu,7.882543210684617,4.481544194717929,161890.6875,566
Osogbo,7.745440476748258,4.5845018943219715,231545.796875,566
Afijio,7.746599758381104,3.8975411630847456,205362.375,566
Akinyele,7.561249754784055,3.9163978997249074,334177.4375,566
Atiba,8.239428196701228,3.914375928771709,265233.34375,566
Atisbo,8.351563908468853,3.2387569170088315,174975.25,566
Egbeda,7.390931726813394,4.0588024869140575,455316.3125,566
IbadanNorth,7.411883937541831,3.9104558319086067,449845.75,566
IbadanNorth-East,7.374330458707503,3.9309948949947353,512555.40625,566
IbadanNorth-West,7.400677032436163,3.877540434284576,272359.1875,566
IbadanSouth-East,7.335101057493493,3.904680198116918,389660.96875,566
IbadanSouth-West,7.354380515354552,3.8640439897467127,440179.875,566
IbarapaCentral,7.426251323893806,3.237355280994356,161920.46875,566
IbarapaEast,7.607796158883193,3.491963438029404,183596.28125,566
IbarapaNorth,7.646084580731071,3.159197138241174,156990.046875,566
Ido,7.50675046780657,3.7119169111411483,176590.453125,566
Irepo,8.999817924618434,3.9346790847189133,188529.53125,566
Iseyin,7.864743722720256,3.5334888136575597,399793.125,566
Itesiwaju,8.188740648166894,3.511809479633188,199270.171875,566
Iwajowa,8.004457619210806,3.0218243712107586,161762.328125,566
Kajola,8.026426442828171,3.3575061318446986,311865.4375,566
Lagelu,7.49481914652424,4.046986668401155,240794.59375,566
OgbomoshoNorth,8.154506335493027,4.270505520513768,317537.375,566
OgbomoshoSouth,8.079778667867807,4.233348267525597,147815.078125,566
OgoOluwa,7.942994869448208,4.221583596981518,105911.90625,566
Olorunsogo,8.751890104684076,4.090866768542299,127285.75,566
Oluyole,7.183813335141477,3.877380515816645,339348.125,566
OnaAra,7.250815099523797,4.040103008799172,402731.84375,566
Orelope,8.80382949163811,3.8114784004609725,162343.125,566
Ori-Ire,8.334219673080598,4.144306633353099,236804.375,566
OyoEast,7.878915863100556,4.021564065369837,181174.75,566
OyoWest,7.9415346929093324,3.8218179728211807,227536.578125,566
SakiEast,8.68327887991291,3.60380761859162,175443.515625,566
SakiWest,8.569862981555083,3.1472112027853223,419347.9375,566
Surulere,8.071764688422503,4.414879140948567,220172.609375,566
BarkinLadi,9.556083033688829,8.912173415206,268561.5625,566
Bassa,10.067285057575734,8.783192483671995,282966.28125,566
Bokkos,9.209364282725021,8.899390321901256,267130.34375,566
JosEast,9.8652100794604,9.072121350623249,133379.875,566
JosNorth,9.908927466913283,8.87118917296252,649443.875,566
JosSouth,9.722113628308009,8.79311084081392,457567.03125,566
Kanam,9.527408892327852,10.053143811719318,249013.6875,566
Kanke,9.396906633355597,9.57899786330675,186733.03125,566
LangtangNorth,9.087988058899542,9.77773228176232,210478.640625,566
LangtangSouth,8.58388183238201,9.810486174937743,156471.859375,566
Mangu,9.399732897506714,9.150074288136857,448328.4375,566
Mikang,9.013618583356127,9.570550808203594,140664.71875,566
Pankshin,9.263311881522103,9.394976866849008,280239.5,566
Qua'anPan,8.738321665926554,9.133405631396613,292388.34375,566
Riyom,9.530497610861355,8.686517628196313,195939.875,566
Shendam,8.698348557503495,9.499736635735008,308121.5,566
Wase,9.052547410942976,10.228912568718764,239081.171875,566
Abua/Odual,4.828491965038268,6.54913475922191,433588.1875,566
AhoadaEast,5.0588195864559244,6.618773992607708,264572.75,566
AhoadaWest,5.051677197659216,6.500465082551608,378436.625,566
Akuku-Toru,4.551237577403671,6.741093565127608,237123.125,566
Andoni,4.509302898093476,7.393853531326627,275000.34375,566
Asari-Toru,4.7427168278468095,6.826878518256974,311449.75,566
Bonny,4.500766743141792,7.191382666916307,307243.625,566
Degema,4.573510551062427,6.900333535360062,362910.375,566
Eleme,4.768798221845602,7.1650341255919425,292939.53125,566
Emuoha,4.99340668532988,6.751012737676924,317477.6875,566
Etche,5.0626925084314,7.04999730735553,393665.84375,566
Gokana,4.660431704071606,7.283531100168829,347391.75,566
Ikwerre,5.026828502798939,6.88398925621991,292487.5,566
Khana,4.695200329098401,7.428052109077492,460326.25,566
Obio/Akpor,4.850352798872266,7.002627485210956,727787.375,566
Ogba/Egbema/Ndoni,5.394712910612019,6.639956594499749,436476.53125,566
Ogu/Bolo,4.647756410959196,7.186667770808797,105809.6484375,566
Okrika,4.657387742681643,7.101247662112096,326450.96875,566
Omumma,5.093438738140848,7.184493841819742,156020.1875,566
Opobo/Nkoro,4.52103543931734,7.497308883713309,213114.390625,566
Oyigbo,4.835793484059126,7.288973633090734,200215.0625,566
PortHarcourt,4.74969024736198,7.032630784931772,743475.5,566
Tai,4.7377803875078195,7.260776817285542,185170.265625,566
Binji,13.179641843776114,4.8916319141918025,156518.28125,566
Bodinga,12.825544362246893,5.23023568666504,260868.859375,566
Dange-Shuni,12.819028605244574,5.4699948171690265,290892.96875,566
Gada,13.673370137197699,5.375930760222114,376576.1875,566
Goronyo,13.372081735571687,5.807796605259281,276606.34375,566
Gudu,13.414869997684823,4.520080039013818,144301.71875,566
Gwadabawa,13.426742945519003,5.375939805719593,351278.5625,566
Illela,13.686727411472573,5.724005909380726,227060.34375,566
Isa,13.21253121678062,6.33337459801266,228148.03125,566
Kebbe,11.88228342709341,4.805731668916623,186624.875,566
Kware,13.149729629184993,5.311950727506906,211511.15625,566
Rabah,12.977753270233837,5.773768596647516,227099.359375,566
SabonBirni,13.480621416843638,6.26657531162768,316240.9375,566
Shagari,12.516494380236994,5.1807858424628614,236022.734375,566
Silame,12.964128057098748,4.893585458182008,157655.75,566
SokotoNorth,13.064129048192358,5.267440226981413,358455.96875,566
SokotoSouth,13.0184743907043,5.279697539661529,266816.3125,566
Tambuwal,12.350692000857562,4.880583233830938,340421.40625,566
Tangaza,13.477018665924742,5.000720054505844,177111.203125,566
Tureta,12.483098636517042,5.459237155926373,103994.9296875,566
Wamako,13.044055167920801,5.120972508303563,287211.71875,566
Wurno,13.242901452762862,5.542384650162571,244891.15625,566
Yabo,12.762310187849165,5.002081022217326,176153.703125,566
Ardo-Kola,8.811142641436662,11.237508036086359,140451.53125,566
Bali,8.147606788764566,11.048412792406735,313869.25,566
Donga,7.681782360544506,10.281109071272487,198913.890625,566
Gashaka,7.550388690219989,11.441765212523972,129820.3203125,566
Gassol,8.443517938906641,10.579130011008294,364773.375,566
Ibi,8.300240877586546,9.774654110079013,126671.71875,566
Jalingo,8.913487460998098,11.401590034516854,198783.875,566
KarimLamido,9.236284245310518,10.970526137097355,289230.03125,566
Kurmi,7.229008209785977,10.667614644724372,134134.859375,566
Lau,9.174217729817478,11.520930431733019,141574.28125,566
Sardauna,6.893201967087824,11.247999898973076,328900.1875,566
Takum,7.4289331160623,10.06738299245885,198002.625,566
Ussa,7.007058459113047,9.922865370993227,135712.328125,566
Wukari,7.976289406029453,9.814782470563129,354195.96875,566
Yorro,8.886735865302304,11.636734929571853,135104.9375,566
Zing,8.901790219549971,11.827330096439791,188785.71875,566
Bade,12.710471337773479,10.895666343585916,218148.171875,566
Borsari,12.711410684836679,11.422353144372508,175142.125,566
Damaturu,11.803642505832961,12.01955338420285,141138.53125,566
Fika,11.377179728314054,11.278283092284424,221507.640625,566
Fune,11.816594533279638,11.448517859569872,481137.5,566
Geidam,12.64596108662524,12.080166948899492,249151.59375,566
Gujba,11.363514352787053,12.008659485799924,207973.90625,566
Gulani,10.94699264789742,11.747402544193006,166951.953125,566
Jakusko,12.406073904282167,10.914965140774205,373254.40625,566
Karasuwa,12.93723882922226,10.747080069992393,172002.875,566
Machina,13.02621210262041,9.998530675348835,97099.234375,566
Nangere,11.793199258514154,10.999190969819086,148302.140625,566
Nguru,12.94597555778105,10.363511443827122,240851.359375,566
Potiskum,11.699804801319246,11.19561603589392,322476.46875,566
Tarmuwa,12.209991924477064,11.828962329641723,124843.0859375,566
Yunusari,13.104477820233024,11.74726035159654,202520.40625,566
Yusufari,13.163151306465162,10.852431115113557,180378.140625,566
Anka,11.956380063802248,6.056686582999777,218224.296875,566
Bakura,12.52978807832802,5.83590961421768,285775.3125,566
Birnin-Magaji/Kiyaw,12.482539549911595,6.892816795307212,279313.84375,566
Bukkuyum,11.9312162601005,5.700708573636262,326976.75,566
Bungudu,12.174922194392249,6.5497672279762105,392960.34375,566
Gummi,11.983689696467028,5.2706268810862085,316222.5,566
Gusau,11.912863873344417,6.766880879700068,583146.4375,566
KauraNamoda,12.536477709671736,6.593216828428655,428665.625,566
Maradun,12.75161285370065,6.274597021199533,313591.40625,566
Maru,11.486078589138843,6.3420183187776935,446504.3125,566
Shinkafi,13.0138239690921,6.472314271469083,207777.453125,566
Talata-Mafara,12.366815849000105,6.116018872977317,324157.53125,566
Tsafe,11.930838527175002,6.926259937411138,404738.0,566
Zurmi,12.83175414862173,6.781239509836397,446666.6875,566
